east:
  - name: |
      Five Boroughs, NY<br>
      <span class="sml">+ Teaneck & Passaic NJ, 5 Towns & Great Neck NY</span>
    twoLine: True
    # Shul: Beth Torah
    lat: 40.622795584652465
    lng: -73.96960885888677
    timezone: America/New_York
    humra: 2
    timeFormat: h12
  - name: Atlanta, GA
    # Location: Chabad of Toco Hills
    lat: 33.814254855365846
    lng: -84.32203439424957
    timezone: America/New_York
    timeFormat: h12
  - name: Baltimore, MD
    #flag: https://upload.wikimedia.org/wikipedia/commons/a/a0/Flag_of_Maryland.svg
    # Location: Ner Yisrael
    lat: 39.38871045313417
    lng: -76.75324161009378
    timezone: America/New_York
    humra: 0
    timeFormat: h12
  - name: |
      Deal, NJ<br>
      <span class="sml">+ Lakewood, NJ</span>
    twoLine: True
    # Location: Beth Medrash Govoha
    lat: 40.09562417811022
    lng: -74.22206003964102
    timezone: America/New_York
    humra: 1
    timeFormat: h12
  - name: Montreal, QC
    # Location: Academy Yeshiva Yavne
    lat: 45.4612709318975
    lng: -73.66436583221801
    timezone: America/New_York
    humra: 0
    timeFormat: h24
  - name: Miami, FL
    #flag: https://upload.wikimedia.org/wikipedia/commons/f/f7/Flag_of_Florida.svg
    # Location: Chabad of Midtown Miami
    lat: 25.804507405080564
    lng: -80.19053877936163
    timezone: America/New_York
    doubleLocation: True
    humra: 0
    timeFormat: h12
  - name: Tampa, FL
    #flag: https://upload.wikimedia.org/wikipedia/commons/f/f7/Flag_of_Florida.svg
    # Location: 
    lat: 27.987052274209734
    lng: -82.57645831769476
    timezone: America/New_York
    humra: 0
    timeFormat: h12
central:
  - name: Austin, TX
    # Location: Tiferet Israel
    lat: 30.35673543347277
    lng: -97.75627669260676
    timezone: America/Chicago
    timeFormat: h12
  - name: Chicago, IL
    #flag: https://upload.wikimedia.org/wikipedia/commons/0/01/Flag_of_Illinois.svg
    # Location: Mikor
    lat: 42.013667229573805
    lng: -87.70204125651325
    timezone: America/Chicago
    timeFormat: h12
  - name: Dallas, TX
    #flag: https://upload.wikimedia.org/wikipedia/commons/f/f7/Flag_of_Texas.svg
    # Location: Congregation Toras Chaim
    lat: 32.99741715565875
    lng: -96.78097876171452
    timezone: America/Chicago
    humra: 1
    timeFormat: h12
  - name: Houston, TX
    #flag: https://upload.wikimedia.org/wikipedia/commons/f/f7/Flag_of_Texas.svg
    # Location: Uptown Chabad
    lat: 29.743773687328083
    lng: -95.4515488015217
    timezone: America/Chicago
    humra: 1
    timeFormat: h12
  - name: Minneapolis, MN
    # Location: Bais Yisroel
    lat: 44.94920049871677
    lng: -93.33365938070462
    timezone: America/Chicago
    timeFormat: h12
  - name: Nashville, TN
    # Location: Chabad
    lat: 36.06225223630986
    lng: -86.92306606904569
    timezone: America/Chicago
    timeFormat: h12
  - name: Phoenix, AZ
    #flag: https://upload.wikimedia.org/wikipedia/commons/9/9d/Flag_of_Arizona.svg
    # Location: Young Israel of Pheonix
    lat: 33.528400
    lng: -112.065002
    timezone: America/Denver
    humra: 0
    timeFormat: h12
  - name: Toronto, ON
    # Location: Agudas Yisrael of Toronto
    lat: 43.735631103552414
    lng: -79.43261235761372
    timezone: America/New_York
    humra: 0
    timeFormat: h24
west:
  - name: Las Vegas, NV
    #flag: "https://upload.wikimedia.org/wikipedia/commons/7/74/State_Seal_of_Nevada.svg"
    # Location: Mesivta of Las Vagas
    lat: 36.141846544208185
    lng: -115.28237053926483
    timezone: America/Los_Angeles
    humra: 0
    timeFormat: h12
  - name: Los Angeles, CA
    #flag: https://upload.wikimedia.org/wikipedia/commons/0/01/Flag_of_California.svg
    # Location: Valley Torah High School
    lat: 34.1688520530159
    lng: -118.40607216944592
    timezone: America/Los_Angeles
    humra: 1
    timeFormat: h12
  - name: San Francisco, CA
    #flag: https://upload.wikimedia.org/wikipedia/commons/0/01/Flag_of_California.svg
    # Location: Chabad of the Neighborhood
    lat: 37.73985657236113
    lng: -122.46842797244682
    timezone: America/Los_Angeles
    humra: 0
    timeFormat: h12
  - name: San Diego, CA
    # Location: Adat Yeshurun
    lat: 32.86391004347926
    lng: -117.23910506437377
    timezone: America/Los_Angeles
    timeFormat: h12
  - name: San Jose, CA
    # Location: Chabad
    lat: 37.24497324161597
    lng: -121.95908744526422
    timezone: America/Los_Angeles
    timeFormat: h12
  - name: Seattle, WA
    #flag: https://upload.wikimedia.org/wikipedia/commons/5/54/Flag_of_Washington.svg
    # Location: Sephardic Bikur Holim Congregation
    lat: 47.54453824815417
    lng: -122.26683403258228
    timezone: America/Los_Angeles
    humra: 0
    timeFormat: h12
  - name: Vancouver
    # Location: Chabad of Downtime
    lat: 49.2770162203696
    lng: -123.12782594833551
    timezone: America/Los_Angeles
    humra: 0
    timeFormat: h24
tallNy:
  - name: |
      Five Boroughs, NY<br>
      <span class="sml">+ Teaneck & Passaic NJ<br>+ 5 Towns & Great Neck NY</span>
    twoLine: True
    # Shul: Beth Torah
    lat: 40.622795584652465
    lng: -73.96960885888677
    timezone: America/New_York
    humra: 2
    timeFormat: h12
  - name: Atlanta, GA
    # Location: Chabad of Toco Hills
    lat: 33.814254855365846
    lng: -84.32203439424957
    timezone: America/New_York
    timeFormat: h12
  - name: Baltimore, MD
    #flag: https://upload.wikimedia.org/wikipedia/commons/a/a0/Flag_of_Maryland.svg
    # Location: Ner Yisrael
    lat: 39.38871045313417
    lng: -76.75324161009378
    timezone: America/New_York
    humra: 0
    timeFormat: h12
  - name: |
      Deal, NJ<br>
      <span class="sml">+ Lakewood, NJ</span>
    twoLine: True
    # Location: Beth Medrash Govoha
    lat: 40.09562417811022
    lng: -74.22206003964102
    timezone: America/New_York
    humra: 1
    timeFormat: h12
  - name: Montreal, QC
    # Location: Academy Yeshiva Yavne
    lat: 45.4612709318975
    lng: -73.66436583221801
    timezone: America/New_York
    humra: 0
    timeFormat: h24
  - name: Miami, FL
    #flag: https://upload.wikimedia.org/wikipedia/commons/f/f7/Flag_of_Florida.svg
    # Location: Chabad of Midtown Miami
    lat: 25.804507405080564
    lng: -80.19053877936163
    timezone: America/New_York
    doubleLocation: True
    humra: 0
    timeFormat: h12
  - name: Tampa, FL
    #flag: https://upload.wikimedia.org/wikipedia/commons/f/f7/Flag_of_Florida.svg
    # Location: 
    lat: 27.987052274209734
    lng: -82.57645831769476
    timezone: America/New_York
    humra: 0
    timeFormat: h12
israel:
  - name:
      en: Jerusalem
      hb: ◊ô◊®◊ï◊©◊ú◊ô◊ù
    flag: üáÆüá±
    # Location: Kotel
    lat: 31.776766188649376
    lng: 35.23450233337062
    timezone: Asia/Jerusalem
    elevation: 788
    humra: 0
  - name:
      en: Haifa
      hb: ◊ó◊ô◊§◊î
    flag: üáÆüá±
    # Location: Yeshiva Mevaser Shalom
    lat: 32.77959008665043
    lng: 34.99117381483697
    timezone: Asia/Jerusalem
    elevation: 282
    humra: 0
  - name:
      en: Tel-Aviv
      hb: ◊™◊ú-◊ê◊ë◊ô◊ë
    flag: üáÆüá±
    # Location: Central Chabad of Tel Aviv
    lat: 32.070030475322845
    lng: 34.773052506343284
    timezone: Asia/Jerusalem
    elevation: 19
    humra: 0
  - name:
      en: Bet Shemesh
      hb: ◊ë◊ô◊™ ◊©◊û◊©
    flag: üáÆüá±
    # Location: Netzach Yisrael
    lat: 31.722984873344494
    lng: 34.99215294269103
    timezone: Asia/Jerusalem
    elevation: 275
    humra: 0
lcm:
  - name: |
      Five Boroughs, NY<br>
      <span class="sml">+ Teaneck & Passaic NJ, 5 Towns & Great Neck NY</span>
    twoLine: True
    # Shul: Beth Torah
    lat: 40.622795584652465
    lng: -73.96960885888677
    timezone: America/New_York
    humra: 2
    timeFormat: h12
  - name: Atlanta, GA
    # Location: Chabad of Toco Hills
    lat: 33.814254855365846
    lng: -84.32203439424957
    timezone: America/New_York
    timeFormat: h12
  - name: Baltimore, MD
    #flag: https://upload.wikimedia.org/wikipedia/commons/a/a0/Flag_of_Maryland.svg
    # Location: Ner Yisrael
    lat: 39.38871045313417
    lng: -76.75324161009378
    timezone: America/New_York
    humra: 0
    timeFormat: h12
  - name: Dallas, TX
    #flag: https://upload.wikimedia.org/wikipedia/commons/f/f7/Flag_of_Texas.svg
    # Location: Congregation Toras Chaim
    lat: 32.99741715565875
    lng: -96.78097876171452
    timezone: America/Chicago
    humra: 1
    timeFormat: h12
  - name: Houston, TX
    #flag: https://upload.wikimedia.org/wikipedia/commons/f/f7/Flag_of_Texas.svg
    # Location: Uptown Chabad
    lat: 29.743773687328083
    lng: -95.4515488015217
    timezone: America/Chicago
    humra: 1
    timeFormat: h12
  - name: |
      Lakewood, NJ<br>
      <span class="sml">+ Deal, NJ</span>
    twoLine: True
    # Location: Beth Medrash Govoha
    lat: 40.09562417811022
    lng: -74.22206003964102
    timezone: America/New_York
    humra: 1
    timeFormat: h12
  - name: Los Angeles, CA
    #flag: https://upload.wikimedia.org/wikipedia/commons/0/01/Flag_of_California.svg
    # Location: Valley Torah High School
    lat: 34.1688520530159
    lng: -118.40607216944592
    timezone: America/Los_Angeles
    humra: 1
    timeFormat: h12
  - name: Montreal, QC
    # Location: Academy Yeshiva Yavne
    lat: 45.4612709318975
    lng: -73.66436583221801
    timezone: America/New_York
    humra: 0
    timeFormat: h24
  - name: |
      Miami, FL<br>
      <span class="sml">+ Boca Raton & Hollywood</span>
    twoLine: True
    # Location: Chabad of Midtown Miami
    lat: 25.804507405080564
    lng: -80.19053877936163
    timezone: America/New_York
    humra: 0
    timeFormat: h12
  - name: Tampa, FL
    #flag: https://upload.wikimedia.org/wikipedia/commons/f/f7/Flag_of_Florida.svg
    # Location: 
    lat: 27.987052274209734
    lng: -82.57645831769476
    timezone: America/New_York
    humra: 0
    timeFormat: h12
  - name: Toronto, ON
    # Location: Agudas Yisrael of Toronto
    lat: 43.735631103552414
    lng: -79.43261235761372
    timezone: America/New_York
    humra: 0
    timeFormat: h24