ny:
  - name: Brooklyn
    # Shul: Beth Torah
    lat: 40.622795584652465
    lng: -73.96960885888677
    timezone: America/New_York
  - name: Queens
    # Shul: LCM
    lat: 40.72422011698068
    lng: -73.81530756686105
    timezone: America/New_York
  - name: Great Neck
    # Shul: Sha'areh Rachamim
    lat: 40.805467328968
    lng: -73.73504996377702
    timezone: America/New_York
  - name: Monsey
    # Shul: Tiferet Torah
    lat: 41.097186104272055
    lng: -74.07527436954092
    timezone: America/New_York
  - name: Five Towns
    # Shul: Young Israel of Woodmere
    lat: 40.635454217158106
    lng: -73.72009668319862
    timezone: America/New_York